[
    { "name": "Albania", "lat": 41.3275, "lon": 19.8189 },
    { "name": "Andorra", "lat": 42.5078, "lon": 1.5211 },
    { "name": "Armenia", "lat": 40.1792, "lon": 44.4991 },
    { "name": "Austria", "lat": 48.2082, "lon": 16.3738 },
    { "name": "Azerbaijan", "lat": 40.4093, "lon": 49.8671 },
    { "name": "Belarus", "lat": 53.9, "lon": 27.5667 },
    { "name": "Belgium", "lat": 50.8503, "lon": 4.3517 },
    { "name": "Bosnia and Herzegovina", "lat": 43.8486, "lon": 18.3564 },
    { "name": "Bulgaria", "lat": 42.6977, "lon": 23.3219 },
    { "name": "Croatia", "lat": 45.1, "lon": 15.2 },
    { "name": "Cyprus", "lat": 35.1856, "lon": 33.3823 },
    { "name": "Czech Republic", "lat": 50.0755, "lon": 14.4378 },
    { "name": "Denmark", "lat": 55.6761, "lon": 12.5683 },
    { "name": "Estonia", "lat": 59.437, "lon": 24.7535 },
    { "name": "Finland", "lat": 60.1699, "lon": 24.9384 },
    { "name": "France", "lat": 48.8566, "lon": 2.3522 },
    { "name": "Georgia", "lat": 41.7151, "lon": 44.8271 },
    { "name": "Germany", "lat": 52.5200, "lon": 13.4050 },
    { "name": "Greece", "lat": 37.9838, "lon": 23.7275,"type":"country" },
    { "name": "Hungary", "lat": 47.4979, "lon": 19.0402 },
    { "name": "Iceland", "lat": 64.1466, "lon": -21.9426 },
    { "name": "Ireland", "lat": 53.3498, "lon": -6.2603 },
    { "name": "Italy", "lat": 41.9028, "lon": 12.4964 },
    { "name": "Kazakhstan", "lat": 51.1694, "lon": 71.4491 },
    { "name": "Kosovo", "lat": 42.6722, "lon": 21.1663 },
    { "name": "Latvia", "lat": 56.946, "lon": 24.1059 },
    { "name": "Liechtenstein", "lat": 47.1415, "lon": 9.5215 },
    { "name": "Lithuania", "lat": 54.6892, "lon": 25.2798 },
    { "name": "Luxembourg", "lat": 49.6117, "lon": 6.13 },
    { "name": "Malta", "lat": 35.8997, "lon": 14.5147 },
    { "name": "Moldova", "lat": 47.0105, "lon": 28.8638 },
    { "name": "Monaco", "lat": 43.7333, "lon": 7.4167 },
    { "name": "Montenegro", "lat": 42.4411, "lon": 19.2636 },
    { "name": "Netherlands", "lat": 52.3676, "lon": 4.9041 },
    { "name": "North Macedonia", "lat": 41.9981, "lon": 21.4254 },
    { "name": "Norway", "lat": 59.9127, "lon": 10.7461 },
    { "name": "Poland", "lat": 52.2298, "lon": 21.0118 },
    { "name": "Portugal", "lat": 38.7169, "lon": -9.1395 },
    { "name": "Romania", "lat": 44.4268, "lon": 26.1025 },
    { "name": "Russia", "lat": 55.7558, "lon": 37.6176 },
    { "name": "San Marino", "lat": 43.9333, "lon": 12.45 },
    { "name": "Serbia", "lat": 44.8176, "lon": 20.4633 },
    { "name": "Slovakia", "lat": 48.1482, "lon": 17.1067 },
    { "name": "Slovenia", "lat": 46.0511, "lon": 14.5051 },
    { "name": "Spain", "lat": 40.4168, "lon": -3.7038 },
    { "name": "Sweden", "lat": 59.3293, "lon": 18.0686 },
    { "name": "Switzerland", "lat": 46.9481, "lon": 7.4474 },
    { "name": "Turkey", "lat": 39.9334, "lon": 32.8597 },
    { "name": "Ukraine", "lat": 50.4501, "lon": 30.5236 },
    { "name": "United Kingdom", "lat": 51.5074, "lon": -0.1278 },
    { "name": "Vatican City", "lat": 41.9029, "lon": 12.4534 }
]
